[
  {
    "station_id": "8517847",
    "timezone_name": "America/New_York",
    "name": "Brooklyn Bridge",
    "state": "NY",
    "latitude": 40.7033,
    "longitude": -73.995
  },
  {
    "station_id": "8664022",
    "timezone_name": "America/New_York",
    "name": "General Dynamics Pier",
    "state": "SC",
    "latitude": 33.0083,
    "longitude": -79.9233
  },
  {
    "station_id": "8721222",
    "timezone_name": "America/New_York",
    "name": "Packwood Place, Mosquito Lagoon",
    "state": "FL",
    "latitude": 28.94,
    "longitude": -80.87
  },
  {
    "station_id": "9410230",
    "timezone_name": "America/Los_Angeles",
    "name": "La Jolla (Scripps Institution Wharf)",
    "state": "CA",
    "latitude": 32.86688888888889,
    "longitude": -117.2571388888889
  },
  {
    "station_id": "9413651",
    "timezone_name": "America/Los_Angeles",
    "name": "Kirby Park, Elkhorn Slough",
    "state": "CA",
    "latitude": 36.84130096435547,
    "longitude": -121.74530029296875
  },
  {
    "station_id": "9414290",
    "timezone_name": "America/Los_Angeles",
    "name": "SAN FRANCISCO (Golden Gate)",
    "state": "CA",
    "latitude": 37.80630555555555,
    "longitude": -122.4658888888889
  },
  {
    "station_id": "9410196",
    "timezone_name": "America/Los_Angeles",
    "name": "Mission Bay, Campland",
    "state": "CA",
    "latitude": 32.793701171875,
    "longitude": -117.22380065917969
  },
  {
    "station_id": "9410580",
    "timezone_name": "America/Los_Angeles",
    "name": "Newport Bay Entrance, Corona del Mar",
    "state": "CA",
    "latitude": 33.6033,
    "longitude": -117.883
  },
  {
    "station_id": "9410660",
    "timezone_name": "America/Los_Angeles",
    "name": "LOS ANGELES (Outer Harbor)",
    "state": "CA",
    "latitude": 33.72,
    "longitude": -118.272
  }
]